City_ID,City,Lat,Lng,Max Temp,Humidity,Cloudiness,Wind Speed,Country,Date
0,enewetak,11.3474,162.3373,27.45,78,71,8.54,MH,1703201221
1,jamestown,42.097,-79.2353,0.29,88,0,3.6,US,1703201080
2,dangriga,16.9692,-88.2321,24.26,77,47,4.88,BZ,1703201221
3,vuokatti,64.146,28.2697,-7.08,99,96,1.68,FI,1703201221
4,hovd,48.0056,91.6419,-19.53,80,35,1.17,MN,1703201213
5,astrakhan,46.3497,48.0408,3.93,86,75,7.15,RU,1703201221
6,aykhal,66.0,111.5,-28.5,100,31,2.46,RU,1703201061
7,peace river,56.2501,-117.286,-1.83,80,75,1.54,CA,1703201171
8,adamstown,-25.066,-130.1015,22.12,84,100,5.28,PN,1703201222
9,presidencia de la plaza,-27.0015,-59.8424,24.38,75,50,1.92,AR,1703201222
10,port lincoln,-34.7333,135.8667,16.85,69,90,4.66,AU,1703201222
11,pucallpa,-8.3791,-74.5539,27.02,83,100,6.17,PE,1703200933
12,panshan,41.1881,122.0494,-18.63,85,3,1.77,CN,1703201222
13,ushuaia,-54.8,-68.3,10.81,54,0,7.2,AR,1703201222
14,mizan teferi,6.9833,35.5833,18.62,60,24,1.28,ET,1703201222
15,anadyr,64.75,177.4833,-26.72,76,56,5.0,RU,1703201222
16,igarka,67.4667,86.5833,-10.1,93,100,10.67,RU,1703201223
17,grytviken,-54.2811,-36.5092,5.11,89,88,5.78,GS,1703201223
18,san patricio,28.017,-97.5169,23.05,67,99,5.0,US,1703201223
19,port-aux-francais,-49.35,70.2167,7.35,97,97,10.06,TF,1703201223
20,waitangi,-43.9535,-176.5597,13.79,74,6,5.69,NZ,1703201223
21,bredasdorp,-34.5322,20.0403,18.26,79,0,4.98,ZA,1703201223
22,san ignacio de velasco,-16.3667,-60.95,25.85,75,96,1.06,BO,1703201223
23,bethel,41.3712,-73.414,-0.19,52,0,3.09,US,1703201223
24,panaba,21.2833,-88.2667,22.91,64,81,5.46,MX,1703201223
25,montevideo,-34.8335,-56.1674,20.01,83,20,4.12,UY,1703201135
26,edinburgh of the seven seas,-37.0676,-12.3116,14.31,73,20,7.61,SH,1703201224
27,bilibino,68.0546,166.4372,-36.57,100,96,0.42,RU,1703201224
28,ramanuj ganj,23.8,83.7,10.03,52,54,1.46,IN,1703201224
29,margaret river,-33.95,115.0667,18.78,63,87,4.94,AU,1703201224
30,campbell river,50.0163,-125.2446,9.21,100,100,4.63,CA,1703201224
31,ceyhan,37.0247,35.8175,10.91,66,100,4.34,TR,1703201224
32,awjilah,29.1081,21.2869,14.43,63,4,7.11,LY,1703201224
33,invercargill,-46.4,168.35,15.01,83,100,1.79,NZ,1703201224
34,yuncheng,35.0231,110.9928,-11.13,51,42,1.29,CN,1703201224
35,coquimbo,-29.9533,-71.3436,16.85,72,75,4.12,CL,1703200997
36,lamu,-2.2717,40.902,27.12,89,41,4.29,KE,1703201225
37,vilyuchinsk,52.9306,158.4028,-18.85,61,43,3.86,RU,1703201225
38,port macquarie,-31.4333,152.9167,22.72,76,100,6.72,AU,1703201225
39,hasaki,35.7333,140.8333,2.94,42,29,3.55,JP,1703201225
40,kalibo (poblacion),11.7061,122.3644,25.1,84,100,4.91,PH,1703201225
41,mazagao,-0.115,-51.2894,28.03,82,100,2.3,BR,1703201225
42,karratha,-20.7377,116.8463,27.29,53,2,5.02,AU,1703201225
43,albany,42.6001,-73.9662,-3.84,65,8,0.45,US,1703201225
44,whitehorse,60.7161,-135.0538,-3.57,74,40,4.12,CA,1703201225
45,nha trang,12.25,109.1833,25.0,91,100,9.12,VN,1703201226
46,blackmans bay,-43.0167,147.3167,14.07,58,92,1.95,AU,1703201226
47,puerto natales,-51.7236,-72.4875,10.94,66,100,3.18,CL,1703201226
48,barra de santo antonio,-9.4047,-35.5072,24.6,84,100,5.31,BR,1703201226
49,udachny,66.4167,112.4,-30.82,99,11,1.65,RU,1703201226
50,turpan,42.9333,89.1667,-8.45,51,28,0.93,CN,1703201226
51,port sudan,19.6175,37.2164,26.06,79,2,1.89,SD,1703201226
52,la passe,45.5549,-0.8967,11.13,86,100,7.54,FR,1703201226
53,happy valley-goose bay,53.3168,-60.3315,-10.83,52,100,4.63,CA,1703201227
54,vadso,70.0744,29.7487,-5.91,79,20,4.63,NO,1703201227
55,cabo san lucas,22.8909,-109.9124,28.17,63,75,1.54,MX,1703200854
56,iqaluit,63.7506,-68.5145,-18.15,71,100,2.57,CA,1703201227
57,saint-joseph,-21.3667,55.6167,24.21,85,12,0.69,RE,1703201208
58,diawara,15.022,-12.5437,20.6,16,82,4.66,SN,1703201227
59,georgetown,5.4112,100.3354,26.96,84,20,3.09,MY,1703200931
60,college,64.8569,-147.8028,-17.82,82,75,0.0,US,1703201227
61,pemangkat,1.1667,108.9667,25.53,88,99,2.76,ID,1703201227
62,hawaiian paradise park,19.5933,-154.9731,23.91,89,100,2.06,US,1703201227
63,mili,6.0815,171.735,27.96,81,98,8.45,MH,1703201227
64,bonthe,7.5264,-12.505,24.93,71,7,2.04,SL,1703201228
65,atafu village,-8.5421,-172.5159,28.91,79,100,5.37,TK,1703201228
66,brezina,33.0989,1.2608,7.36,67,2,2.11,DZ,1703201228
67,nabire,-3.3667,135.4833,26.59,84,98,0.79,ID,1703201228
68,port mathurin,-19.6833,63.4167,26.47,78,22,5.44,MU,1703201228
69,malango,-2.9627,119.9001,21.3,93,97,0.37,ID,1703201228
70,klyuchi,52.2667,79.1667,-0.42,98,100,4.6,RU,1703201228
71,tokar,18.4254,37.729,25.19,83,0,2.11,SD,1703201228
72,zahedan,29.4963,60.8629,1.95,69,0,2.06,IR,1703201229
73,bredy,52.4153,60.3411,-1.1,86,100,6.93,RU,1703201229
74,chonchi,-42.6128,-73.8092,15.07,77,93,0.92,CL,1703201229
75,valparaiso,-33.0393,-71.6273,21.13,62,0,4.63,CL,1703201229
76,yellowknife,62.456,-114.3525,-14.71,92,100,2.57,CA,1703201083
77,hinthada,17.6333,95.4667,19.63,76,14,2.72,MM,1703201229
78,tsiombe,-25.3,45.4833,23.16,94,20,3.02,MG,1703201229
79,ixtapa,20.7,-105.2,26.57,78,75,5.66,MX,1703201229
80,aasiaat,68.7098,-52.8699,-19.39,92,100,3.41,GL,1703201229
81,hobyo,5.3505,48.5268,26.22,85,45,7.87,SO,1703201229
82,liwale,-9.7667,37.9333,21.78,99,98,1.28,TZ,1703201229
83,vorkuta,67.5,64.0,-6.73,94,99,5.63,RU,1703201029
84,lompoc,34.6391,-120.4579,18.4,72,100,7.6,US,1703201136
85,fort mcmurray,56.7268,-111.381,3.77,52,100,2.57,CA,1703201230
86,susuman,62.7833,148.1667,-40.67,100,93,0.3,RU,1703201230
87,east london,-33.0153,27.9116,21.0,80,97,4.65,ZA,1703201230
88,rawson,-43.3002,-65.1023,14.61,80,4,7.73,AR,1703201230
89,burang,30.25,81.1667,-4.27,27,19,1.68,CN,1703201230
90,mao,39.8885,4.2658,14.31,72,0,6.17,ES,1703201230
91,port elizabeth,-33.918,25.5701,20.73,80,75,5.14,ZA,1703201230
92,eyl,7.9803,49.8164,24.66,86,26,6.25,SO,1703201231
93,ust-nera,64.5667,143.2,-39.94,99,60,1.98,RU,1703201231
94,ta`u,-14.2336,-169.5144,26.02,88,90,7.34,AS,1703201231
95,fort bragg,35.139,-79.006,9.55,54,75,0.0,US,1703201231
96,uturoa,-16.7333,-151.4333,25.0,91,100,3.19,PF,1703201231
97,reyes,-14.3167,-67.3833,25.81,89,99,1.05,BO,1703201231
98,kodiak,57.79,-152.4072,1.73,55,0,2.06,US,1703200997
99,tarhuna,32.435,13.6332,10.28,65,22,10.39,LY,1703201231
100,balabac,7.9868,117.0645,27.73,79,33,6.5,PH,1703201055
101,polyarnyy,69.1989,33.4478,-11.19,97,100,4.43,RU,1703201231
102,bamboo flat,11.7,92.7167,27.05,89,40,3.6,IN,1703201231
103,lihue,21.9789,-159.3672,26.58,76,75,6.69,US,1703201231
104,ribeira grande,38.5167,-28.7,17.1,84,83,4.92,PT,1703201232
105,shingu,33.7333,135.9833,2.31,58,5,5.72,JP,1703201232
106,kodinsk,58.6881,99.1844,-15.87,98,98,1.8,RU,1703201232
107,longyearbyen,78.2186,15.6401,-12.09,52,0,5.14,SJ,1703201232
108,tomatlan,19.9333,-105.25,27.13,65,99,3.21,MX,1703201232
109,luderitz,-26.6481,15.1594,15.47,85,0,5.52,NA,1703201232
110,akureyri,65.6835,-18.0878,-11.04,92,75,0.51,IS,1703201232
111,oxelosund,58.6706,17.1015,1.21,93,75,5.66,SE,1703201232
112,lerwick,60.1545,-1.1494,3.0,66,100,11.43,GB,1703201232
113,morondava,-20.2833,44.2833,26.79,79,44,1.01,MG,1703201233
114,leszno,51.8403,16.5749,4.46,68,65,11.78,PL,1703201233
115,stanley,54.868,-1.6985,6.82,80,0,8.23,GB,1703201233
116,ilulissat,69.2167,-51.1,-11.99,67,100,10.29,GL,1703201233
117,nova sintra,14.8667,-24.7167,20.38,64,43,7.23,CV,1703201233
118,saldanha,-33.0117,17.9442,16.03,87,0,3.42,ZA,1703201233
119,bestobe,52.4994,73.0975,1.75,91,100,7.71,KZ,1703201233
120,papatowai,-46.5619,169.4708,11.75,96,100,3.29,NZ,1703201233
121,labytnangi,66.6572,66.4183,-11.75,94,77,3.52,RU,1703201233
122,isafjordur,66.0755,-23.124,-9.99,75,99,3.37,IS,1703201233
123,puerto ayora,-0.7393,-90.3518,24.52,83,93,5.13,EC,1703201234
124,kolpashevo,58.3131,82.9089,-6.44,94,96,4.25,RU,1703201234
125,kerikeri,-35.2268,173.9474,19.0,87,100,3.25,NZ,1703201234
126,den burg,53.0542,4.7972,8.32,67,91,11.83,NL,1703201234
127,kavieng,-2.5744,150.7967,27.81,77,58,1.41,PG,1703201234
128,paharpur,32.1038,70.9724,15.19,21,100,0.2,PK,1703201234
129,porto novo,6.4965,2.6036,26.76,63,44,2.47,BJ,1703201059
130,island harbour,50.724,-1.2758,11.63,84,100,9.82,GB,1703201234
131,pinckneyville,38.0803,-89.382,11.19,55,100,3.45,US,1703201235
132,shimoda,34.6667,138.95,6.2,60,1,10.61,JP,1703201235
133,n'zeto,-7.2312,12.8666,26.5,87,98,2.18,AO,1703201235
134,sodra sandby,56.5667,16.6167,3.27,93,81,4.15,SE,1703201235
135,namie,37.4833,141.0,2.21,71,27,2.4,JP,1703201235
136,kirakira,-10.4544,161.9205,29.74,68,70,1.35,SB,1703201235
137,badger,64.8,-147.5333,-17.86,84,75,0.0,US,1703201235
138,yazd,31.8972,54.3675,5.06,52,0,2.06,IR,1703201235
139,prado,-17.3411,-39.2208,25.16,86,20,6.34,BR,1703201235
140,afaahiti,-17.75,-149.2833,26.93,91,100,5.04,PF,1703201235
141,coreau,-3.5333,-40.6567,28.29,64,100,2.25,BR,1703201235
142,sandnessjoen,66.0217,12.6316,-5.71,73,100,6.13,NO,1703201236
143,lagoa,39.05,-27.9833,16.38,69,97,6.53,PT,1703201236
144,holyhead,53.3062,-4.6321,10.15,93,100,8.23,GB,1703201236
145,tindouf,27.6711,-8.1474,11.25,32,0,2.06,DZ,1703201236
146,sucre,-19.0333,-65.2627,19.44,58,49,3.66,BO,1703201065
147,changuinola,9.4333,-82.5167,22.75,78,72,4.92,PA,1703201236
148,touros,-5.1989,-35.4608,26.42,83,97,6.26,BR,1703201236
149,korla,41.7597,86.1469,-8.78,73,5,0.22,CN,1703201236
150,tiksi,71.6872,128.8694,-26.9,98,71,5.34,RU,1703201236
151,bikenibeu village,1.3673,173.1241,23.98,94,100,2.57,KI,1703201237
152,nizhniy odes,63.6445,54.856,-8.89,98,99,1.73,RU,1703201237
153,nurota,40.5614,65.6886,2.36,61,0,0.68,UZ,1703201237
154,fortuna,40.5982,-124.1573,14.96,90,0,0.45,US,1703201237
155,wailua homesteads,22.0669,-159.378,26.24,80,75,6.69,US,1703201237
156,cole harbour,44.6724,-63.4751,-1.14,75,93,13.86,CA,1703201237
157,tadmur,34.5608,38.2805,9.87,65,57,2.72,SY,1703201237
158,charters towers,-20.1,146.2667,28.97,60,23,4.81,AU,1703201237
159,wajir,1.7471,40.0573,28.74,51,29,4.38,KE,1703201237
160,arraial do cabo,-22.9661,-42.0278,24.98,83,40,2.57,BR,1703200956
161,artesia,33.8658,-118.0831,20.93,77,75,4.63,US,1703201237
162,kuqa,41.7278,82.9364,-7.36,62,0,1.11,CN,1703201237
163,nkhotakota,-12.9274,34.2961,25.68,74,99,1.19,MW,1703201238
164,kabalo,-6.05,26.9167,21.79,96,100,0.83,CD,1703201238
165,taoudenni,22.6783,-3.9836,15.08,35,11,5.07,ML,1703201238
166,cidreira,-30.1811,-50.2056,23.2,90,1,6.98,BR,1703201238
167,darwin,-12.4611,130.8418,29.97,80,75,2.06,AU,1703201031
168,tazovsky,67.4667,78.7,-4.5,95,100,7.12,RU,1703201238
169,khandyga,62.6667,135.6,-47.27,99,75,1.11,RU,1703201238
170,krasnyy chikoy,50.3643,108.7512,-29.38,99,23,0.41,RU,1703201238
171,medina,24.4686,39.6142,22.24,49,0,2.57,SA,1703201238
172,kailua-kona,19.6406,-155.9956,25.98,88,100,1.54,US,1703201238
173,fale old settlement,-9.3852,-171.2468,28.33,79,92,4.7,TK,1703201238
174,rongelap,11.1635,166.8941,27.26,80,99,8.8,MH,1703201239
175,khanjarah,40.5999,33.6153,4.66,84,100,1.8,TR,1703201239
176,hermanus,-34.4187,19.2345,19.89,74,0,6.6,ZA,1703201239
177,kidal,18.4411,1.4078,17.0,17,93,4.92,ML,1703201239
178,sangmelima,2.9333,11.9833,23.41,82,95,1.4,CM,1703201239
179,colonia,50.9333,6.95,7.2,85,40,8.75,DE,1703201233
180,revda,56.801,59.9303,1.59,86,100,7.16,RU,1703201239
181,penzance,50.1186,-5.5371,11.38,90,100,14.08,GB,1703201239
182,laguna,38.421,-121.4238,19.6,81,40,2.06,US,1703201239
183,hithadhoo,-0.6,73.0833,27.99,78,90,5.35,MV,1703201240
184,west island,-12.1568,96.8225,24.99,94,100,3.6,CC,1703201240
185,kingston,17.997,-76.7936,26.53,69,75,5.14,JM,1703200746
186,madan,41.5,24.95,1.14,88,12,2.36,BG,1703201240
187,vilhena,-12.7406,-60.1458,24.12,94,75,3.09,BR,1703201240
188,amga,60.8953,131.9608,-38.07,100,98,0.5,RU,1703201240
189,talnakh,69.4865,88.3972,-11.55,89,100,9.1,RU,1703201240
190,chrudim,49.9511,15.7956,5.05,81,75,8.75,CZ,1703201240
191,yuanping,38.7153,112.7575,-25.18,87,20,0.4,CN,1703201240
192,avarua,-21.2078,-159.775,27.03,65,20,4.63,CK,1703201241
193,nagqu,31.5,92.0,-20.2,84,99,1.08,CN,1703201241
194,tolanaro,-25.0319,46.9987,25.11,87,97,0.58,MG,1703201241
195,kinmparana,12.8402,-4.9199,20.49,12,5,3.13,ML,1703201241
196,tura,25.5198,90.2201,14.76,72,68,1.44,IN,1703201241
197,fortaleza,-3.7227,-38.5247,29.48,84,40,6.69,BR,1703201241
198,sitka,57.0531,-135.33,4.94,75,100,3.6,US,1703201241
199,villa de arista,22.65,-100.8333,19.45,51,100,2.65,MX,1703201241
200,idri,27.5,13.2667,9.82,50,0,3.68,LY,1703201241
201,ujae,8.9322,165.7642,27.33,81,83,9.29,MH,1703201241
202,ancud,-41.8697,-73.8203,14.27,79,27,3.65,CL,1703201241
203,mar del plata,-38.0023,-57.5575,18.3,84,0,3.58,AR,1703200975
204,boundiali,9.5217,-6.4869,21.56,20,9,1.68,CI,1703201242
205,la'ie,21.6477,-157.9253,27.98,73,100,9.25,US,1703201242
206,namsos,64.4662,11.4957,-1.97,86,100,2.57,NO,1703201242
207,saipan,15.1355,145.701,27.39,83,40,7.72,MP,1703201242
208,chistopol',55.3631,50.6424,0.8,98,100,7.91,RU,1703201242
209,cururupu,-1.8283,-44.8683,26.49,81,100,1.96,BR,1703201242
210,bykhaw,53.5193,30.2469,1.92,83,100,8.31,BY,1703201242
211,carnarvon,-24.8667,113.6333,23.09,78,12,3.86,AU,1703201242
212,iwye,53.9299,25.7727,2.27,96,100,8.78,BY,1703201243
213,port alfred,-33.5906,26.891,20.66,85,45,1.79,ZA,1703201243
214,mount gambier,-37.8333,140.7667,18.2,50,82,4.89,AU,1703201243
215,tazacorte,28.629,-17.9293,18.54,75,75,6.17,ES,1703201243
216,kapuskasing,49.4169,-82.4331,-8.95,79,100,4.12,CA,1703201243
217,machico,32.7,-16.7667,18.35,81,75,9.26,PT,1703201243
218,nadi,-17.8,177.4167,30.0,70,40,5.14,FJ,1703201243
219,market drayton,52.9054,-2.4901,10.79,74,75,7.72,GB,1703201243
220,nago,26.5881,127.9761,14.47,67,100,9.04,JP,1703201243
221,kavaratti,10.5669,72.642,27.5,75,100,1.23,IN,1703201243
222,labuan,5.2767,115.2417,26.2,94,20,0.0,MY,1703201244
223,puerto baquerizo moreno,-0.9,-89.6,25.55,83,75,6.17,EC,1703201244
224,nantucket,41.2835,-70.0995,1.67,51,0,8.23,US,1703201075
225,ketchikan,55.3422,-131.6461,6.26,87,100,1.54,US,1703201244
226,hamilton,39.1834,-84.5333,8.64,56,0,2.06,US,1703201059
227,villa gesell,-37.2639,-56.973,19.47,84,26,3.86,AR,1703201244
228,griffith,41.5284,-87.4237,7.38,66,100,1.54,US,1703201244
229,faya-largeau,17.9257,19.1043,18.99,25,0,8.51,TD,1703201244
230,sabang,5.8933,95.3214,27.82,75,78,8.13,ID,1703201244
231,damghan,36.1683,54.348,3.8,54,0,0.97,IR,1703201244
232,macenta,8.5435,-9.471,19.56,34,25,1.13,GN,1703201045
233,gemena,3.25,19.7667,24.96,76,84,1.2,CD,1703201244
234,crane,31.3974,-102.3501,18.64,47,73,2.1,US,1703201245
235,naze,28.3667,129.4833,10.51,71,100,7.46,JP,1703201245
236,saint-francois,46.4154,3.9054,9.69,89,100,5.66,FR,1703201245
237,olonkinbyen,70.9221,-8.7187,-2.19,71,91,11.21,SJ,1703201122
238,dongola,19.1667,30.4833,19.48,25,4,4.06,SD,1703201245
239,lucapa,-8.4192,20.7447,20.09,98,100,1.09,AO,1703201245
240,sao jose da coroa grande,-8.8978,-35.1478,26.46,82,100,5.38,BR,1703201245
241,mata-utu,-13.2816,-176.1745,28.87,77,95,5.12,WF,1703201245
242,carutapera,-1.195,-46.02,26.66,82,100,2.94,BR,1703201245
243,morales,2.757,-76.6172,18.41,95,100,0.45,CO,1703201245
244,maragogi,-9.0122,-35.2225,26.27,83,100,5.3,BR,1703201245
245,margate,51.3813,1.3862,10.49,68,83,5.36,GB,1703201246
246,jiagedaqi,50.4167,124.1167,-23.22,96,74,1.68,CN,1703201246
247,batroun,34.2553,35.6581,13.08,90,55,8.61,LB,1703201246
248,harstad,68.799,16.5293,-2.14,88,100,4.92,NO,1703201246
249,tucuma,-0.1833,-50.05,25.9,87,100,3.5,BR,1703201246
250,al qubbah,32.7616,22.2424,11.68,77,49,8.83,LY,1703201246
251,boende,-0.2167,20.8667,22.99,97,100,1.46,CD,1703201246
252,kenai,60.5544,-151.2583,-5.95,100,100,2.57,US,1703201246
253,puri,19.8,85.85,13.29,66,41,2.46,IN,1703201246
254,serenje,-13.2325,30.2352,17.7,99,100,1.12,ZM,1703201246
255,smithers,54.7804,-127.1743,2.18,93,100,2.57,CA,1703201247
256,usogorsk,63.4106,48.6872,-11.56,99,100,1.34,RU,1703201247
257,lionel town,17.8101,-77.2406,26.94,77,75,3.83,JM,1703201247
258,hede,33.7681,120.2517,-7.98,36,0,3.41,CN,1703201247
259,thompson,55.7435,-97.8558,-3.91,86,100,4.12,CA,1703201247
260,codrington,-38.2667,141.9667,18.33,52,59,6.36,AU,1703201247
261,alice springs,-23.7,133.8833,27.75,12,0,6.69,AU,1703201178
262,lima,-12.0432,-77.0282,22.14,68,0,7.2,PE,1703201120
263,dublyany,49.9041,24.0864,4.88,67,100,11.29,UA,1703201247
264,homer,59.6425,-151.5483,-4.06,82,100,2.06,US,1703201247
265,rumoi,43.9344,141.6428,-6.59,79,97,1.9,JP,1703201247
266,marka,1.7159,44.7717,26.63,85,14,7.93,SO,1703201248
267,demba,-5.51,22.2667,21.1,97,100,0.48,CD,1703201248
268,paramonga,-10.6667,-77.8333,21.55,83,51,4.76,PE,1703201248
269,mambajao,9.2504,124.7156,26.48,85,97,4.94,PH,1703201248
270,qaqortoq,60.7167,-46.0333,-8.19,84,100,1.81,GL,1703201248
271,kosong,38.3788,128.4676,-11.73,63,0,3.76,KR,1703201248
272,thief river falls,48.1191,-96.1812,1.96,80,100,3.09,US,1703201248
273,arar,30.9753,41.0381,10.01,81,40,2.06,SA,1703201248
274,sibsagar,26.9833,94.6333,12.33,77,36,1.44,IN,1703201248
275,kayangel,8.0823,134.7173,28.58,71,8,6.76,PW,1703201248
276,moranbah,-22.0016,148.0466,27.71,56,4,4.51,AU,1703201249
277,aksu,41.1231,80.2644,-7.28,62,1,0.97,CN,1703201249
278,north la crosse,43.8464,-91.2482,4.71,75,100,1.54,US,1703201249
279,galesong,-5.3166,119.3661,25.01,70,88,1.48,ID,1703201249
280,obo,5.3998,26.4869,24.7,33,96,1.5,CF,1703201249
281,kayalpattinam,8.5667,78.1167,24.54,88,95,6.7,IN,1703201249
282,blackwater,-23.5833,148.8833,26.88,64,23,3.9,AU,1703201249
283,guerrero negro,27.9769,-114.0611,24.7,47,3,2.58,MX,1703201249
284,illapel,-31.6308,-71.1653,22.13,50,100,2.59,CL,1703201171
285,yangambi,0.8102,24.4336,23.03,93,100,0.26,CD,1703201249
286,jeddah,21.5169,39.2192,26.92,69,0,2.06,SA,1703201250
287,lebu,-37.6167,-73.65,14.06,82,0,6.89,CL,1703201250
288,belmonte,-15.8631,-38.8828,24.67,87,99,3.85,BR,1703201250
289,cacu,-18.5567,-51.1308,26.04,69,85,3.35,BR,1703201250
290,moju,-1.8839,-48.7689,23.74,97,100,1.04,BR,1703201250
291,libres,19.4667,-97.6833,16.11,45,48,3.07,MX,1703201250
292,lyudinovo,53.8664,34.4478,-1.28,93,72,4.66,RU,1703201250
293,meridianville,34.8515,-86.5722,10.48,46,0,0.0,US,1703201250
294,dryden,49.7833,-92.7503,0.16,80,75,4.12,CA,1703201250
295,ust'-kulom,61.6864,53.6902,-6.64,98,100,1.38,RU,1703201250
296,bereket,39.2446,55.5154,5.79,47,0,3.31,TM,1703201251
297,vinhais,41.8351,-7.005,4.66,85,4,2.47,PT,1703201251
298,asau,46.4333,26.4,1.51,74,79,2.93,RO,1703201251
299,muynoq,43.7683,59.0214,0.68,76,4,4.44,UZ,1703201251
300,kostomuksha,64.571,30.5767,-19.42,100,100,0.89,RU,1703201003
301,tulun,54.5611,100.5792,-26.06,95,40,1.67,RU,1703201251
302,fuglafjordur,62.244,-6.814,-0.74,86,98,3.3,FO,1703201251
303,ghadamis,30.1337,9.5007,11.06,46,0,3.17,LY,1703201251
304,chibougamau,49.9168,-74.3659,-13.21,78,100,2.57,CA,1703201251
305,fort st. john,56.2499,-120.8529,2.94,75,75,3.09,CA,1703201100
306,westport,41.1415,-73.3579,1.77,50,0,4.12,US,1703201131
307,tuba city,36.135,-111.2399,10.96,58,43,1.8,US,1703201252
308,queenstown,-31.8976,26.8753,16.5,86,72,2.29,ZA,1703201252
309,bandundu,-3.3167,17.3667,22.66,96,100,0.4,CD,1703201252
310,bantogon,6.5333,124.0333,26.21,77,72,1.52,PH,1703201252
311,pangoa,-12.1167,-73.0,23.21,95,99,0.8,PE,1703201252
312,iwanai,42.9744,140.5089,-4.48,81,100,5.05,JP,1703201252
313,shiyan,32.6475,110.7781,-3.07,46,87,0.85,CN,1703201252
314,hafnarfjordur,64.0671,-21.9377,-3.79,58,75,2.06,IS,1703201252
315,qamdo,31.1667,97.2333,-8.3,39,97,2.2,CN,1703201252
316,constantia,44.1833,28.65,0.39,81,26,4.33,RO,1703201252
317,necochea,-38.5473,-58.7368,17.37,71,0,2.96,AR,1703201253
318,baardheere,2.3446,42.2764,27.04,75,19,4.07,SO,1703201253
319,vernon,50.2581,-119.2691,7.56,85,78,3.58,CA,1703201253
320,puerto deseado,-47.7503,-65.8938,10.72,68,75,5.49,AR,1703201253
321,bushehr,28.9684,50.8385,17.05,63,94,0.0,IR,1703201253
322,vila velha,-20.3297,-40.2925,25.97,89,75,4.12,BR,1703201253
323,agat village,13.3886,144.6585,29.64,78,20,7.72,GU,1703201253
324,fisterra,42.9049,-9.2629,7.64,81,5,6.08,ES,1703201253
325,oriximina,-1.7656,-55.8661,27.47,74,97,1.11,BR,1703201253
326,bac lieu,9.285,105.7244,22.92,76,47,4.12,VN,1703201253
327,sakaiminato,35.55,133.2333,-0.01,74,75,10.29,JP,1703201254
328,aljezur,37.3191,-8.8033,10.0,70,8,3.44,PT,1703201254
329,birni n konni,13.7956,5.2553,21.81,23,18,4.84,NE,1703201254
330,forster,-32.1667,152.5167,23.54,70,100,6.56,AU,1703201254
331,kargopol',61.5071,38.9456,-5.4,94,100,1.77,RU,1703201254
332,urzhar,47.093,81.6294,-7.97,81,41,2.27,KZ,1703201254
333,portrush,55.1959,-6.6493,10.27,84,99,4.92,GB,1703201254
334,mahajanga,-15.7167,46.3167,27.86,77,100,1.53,MG,1703201254
335,sinabang,2.4803,96.3801,26.23,84,89,1.05,ID,1703201254
336,pemba,-12.974,40.5178,27.21,79,56,5.43,MZ,1703201254
337,constitucion,-35.3333,-72.4167,16.46,71,19,6.96,CL,1703201255
338,alofi,-19.0595,-169.9187,27.94,57,75,7.2,NU,1703201255
339,ciudad lazaro cardenas,17.9583,-102.2,27.59,69,20,4.36,MX,1703201255
340,laminusa,5.5549,120.9136,27.69,77,72,2.81,PH,1703201255
341,flagstaff,35.1981,-111.6513,13.07,70,75,3.6,US,1703201041
342,katsuura,35.1333,140.3,6.27,53,61,3.76,JP,1703201255
343,zabid,14.1951,43.3152,23.93,70,3,2.23,YE,1703201255
344,ubari,26.5921,12.7805,9.56,54,0,3.38,LY,1703201255
345,bathsheba,13.2167,-59.5167,26.34,89,20,3.6,BB,1703201255
346,saint-philippe,-21.3585,55.7679,24.77,84,21,0.72,RE,1703201256
347,verkhnevilyuysk,63.4453,120.3167,-26.56,90,13,2.77,RU,1703201256
348,mushabani,22.5167,86.45,14.31,55,29,1.61,IN,1703201256
349,imeko,7.45,2.85,23.9,38,12,1.56,NG,1703201256
350,thinadhoo,0.5333,72.9333,27.19,82,100,6.05,MV,1703201256
351,palmas,-10.2128,-48.3603,28.93,65,40,2.57,BR,1703201256
352,burlington,39.8835,-74.6413,4.84,67,0,2.06,US,1703201127
353,nelson bay,-32.7167,152.15,22.78,73,100,4.92,AU,1703201256
354,akjoujt,19.6969,-14.4164,15.98,20,26,4.24,MR,1703201256
355,alangulam,8.8667,77.5,22.96,91,99,0.46,IN,1703201256
356,al jawf,29.5,38.75,16.18,69,91,4.29,SA,1703201256
357,petropavlovsk-kamchatsky,53.0452,158.6483,-19.67,67,0,4.92,RU,1703201257
358,belyy yar,53.6039,91.3903,-16.06,92,100,0.0,RU,1703201257
359,remire-montjoly,4.9167,-52.2667,28.02,89,40,2.57,GF,1703201257
360,nieuw amsterdam,5.8833,-55.0833,28.34,86,20,3.09,SR,1703201257
361,hoover,33.4054,-86.8114,11.17,54,0,1.54,US,1703201046
362,mejit,10.2753,170.8646,27.17,82,93,9.47,MH,1703201257
363,abidjan,5.3094,-4.0197,23.98,83,35,1.03,CI,1703201257
364,tongouson,5.0214,120.1328,27.91,77,38,2.85,PH,1703201257
365,portovelo,-3.7167,-79.6167,29.23,92,100,1.37,EC,1703201257
366,sulak,43.2734,47.5146,4.81,74,81,4.44,RU,1703201257
367,tera,14.0078,0.7531,20.37,13,26,4.21,NE,1703201257
368,bulanik,39.0929,42.2703,-0.74,90,100,1.06,TR,1703201258
369,whangarei,-35.7317,174.3239,23.0,57,100,3.3,NZ,1703201258
370,muisne,0.6,-80.0333,26.49,86,91,2.49,EC,1703201258
371,general cabrera,-32.8131,-63.8724,25.81,61,99,2.6,AR,1703201258
372,jiazi,22.8779,116.067,7.44,57,76,6.82,CN,1703201258
373,gadzhiyevo,69.2551,33.3362,-11.94,97,99,4.31,RU,1703201258
374,rio grande,-32.035,-52.0986,25.06,88,10,2.09,BR,1703201222
375,arteche,12.2645,125.4048,25.82,88,91,3.14,PH,1703201258
376,leua,48.2156,18.6071,7.67,83,100,10.3,SK,1703201258
377,brisas de zicatela,15.8369,-97.0419,27.29,65,0,2.06,MX,1703201258
378,lebyazh'ye,55.2689,66.4947,1.35,94,100,8.35,RU,1703201259
379,jianshui,23.6363,102.8264,7.7,68,100,2.37,CN,1703201259
380,qarauyl,48.9451,79.255,-5.0,83,98,5.35,KZ,1703201259
381,katsuren-haebaru,26.3369,127.8719,14.43,61,75,8.23,JP,1703201259
382,sisimiut,66.9395,-53.6735,-11.35,85,100,1.81,GL,1703201259
383,tostado,-29.232,-61.7692,23.88,77,96,3.33,AR,1703201259
384,trat,12.5,102.5,20.11,71,86,6.25,TH,1703201259
385,yanam,16.7333,82.2167,17.94,87,1,1.21,IN,1703201259
386,narvik,68.4384,17.4272,-2.89,70,100,3.25,NO,1703201259
387,sao cristovao,-11.0147,-37.2064,26.95,89,75,3.6,BR,1703201259
388,bongouanou,6.6486,-4.1992,21.29,36,9,1.04,CI,1703201259
389,xilin hot,43.9667,116.0333,-23.48,84,8,4.08,CN,1703201260
390,nuuk,64.1835,-51.7216,-7.66,62,75,5.14,GL,1703201260
391,opuwo,-18.0607,13.84,23.55,62,98,3.55,NA,1703201260
392,sao joao da barra,-21.6403,-41.0511,26.05,88,99,2.57,BR,1703201260
393,san andres,12.5847,-81.7006,26.01,94,20,2.57,CO,1703201260
394,anloga,5.7947,0.8973,27.66,73,34,3.88,GH,1703201260
395,punta arenas,-53.15,-70.9167,12.06,54,0,5.14,CL,1703201047
396,ballina,-28.8667,153.5667,20.99,88,100,6.69,AU,1703201260
397,yorkton,51.2167,-102.4677,-2.09,86,75,2.57,CA,1703201260
398,namibe,-15.1961,12.1522,22.91,77,97,0.97,AO,1703201260
399,tyazhinskiy,56.116,88.524,-5.65,90,99,5.33,RU,1703201260
400,yelizovo,53.1873,158.3805,-18.92,50,0,2.0,RU,1703201261
401,laranjeiro,37.0683,-7.7937,11.55,76,0,1.03,PT,1703201261
402,cockburn town,21.4612,-71.1419,23.67,66,38,9.39,TC,1703201261
403,chulakkurgan,43.765,69.1814,-3.67,82,4,2.4,KZ,1703201261
404,madras,13.0878,80.2785,22.99,88,40,1.54,IN,1703201261
405,mount pearl,47.5166,-52.7813,7.07,100,100,4.12,CA,1703201261
406,iskateley,67.6803,53.1512,-8.88,97,98,2.68,RU,1703201261
407,mossel bay,-34.1831,22.146,17.96,81,0,7.24,ZA,1703201261
408,eldoret,0.5204,35.2699,14.05,82,0,1.54,KE,1703201261
409,orichi,58.4036,49.0572,0.59,99,100,3.79,RU,1703201261
410,lakinsk,56.0193,39.9485,0.17,93,100,3.98,RU,1703201261
411,el granada,37.5027,-122.4694,16.94,79,0,2.57,US,1703201262
412,utrik,11.2278,169.8474,27.04,79,78,9.35,MH,1703201262
413,nadvoitsy,63.8667,34.3167,-16.56,99,96,1.75,RU,1703201262
414,kosonsoy,41.2561,71.5508,-3.69,40,0,0.9,UZ,1703201262
415,khairpur,27.5295,68.7617,12.0,15,100,2.02,PK,1703201262
416,weno,7.4515,151.8468,29.97,74,75,5.14,FM,1703201262
417,tomohon,1.3346,124.8392,23.52,87,84,0.69,ID,1703201262
418,praia da vitoria,38.7333,-27.0667,16.14,77,40,5.7,PT,1703201069
419,cheria,35.2731,7.7519,5.12,92,80,5.87,DZ,1703201262
420,vila franca do campo,37.7167,-25.4333,14.23,82,38,4.36,PT,1703201262
421,orkney,-26.9802,26.6727,24.63,36,50,2.88,ZA,1703201263
422,lazaro cardenas,17.9583,-102.2,27.59,69,20,4.36,MX,1703201255
423,glace bay,46.1969,-59.957,-0.12,93,100,15.95,CA,1703201263
424,souq larb'a al gharb,34.6866,-6.0027,12.12,78,0,1.28,MA,1703201263
425,chadan,51.2833,91.5833,-25.42,97,100,0.54,RU,1703201263
426,tome acu,-2.4189,-48.1522,23.87,97,100,1.57,BR,1703201168
427,san juan de la rambla,28.3928,-16.6502,19.45,87,59,6.54,ES,1703201263
428,mirnyy,62.5353,113.9611,-27.65,75,91,4.92,RU,1703201263
429,hadibu,12.65,54.0333,24.7,79,71,4.13,YE,1703201263
430,sablayan,12.8346,120.769,26.8,75,100,2.11,PH,1703201263
431,point vernon,-25.25,152.8167,23.95,96,100,2.68,AU,1703201264
432,nyurba,63.2842,118.3319,-27.7,92,16,3.64,RU,1703201264
433,kurye,35.2094,127.4644,-7.84,89,88,2.26,KR,1703201264
434,goundam,16.4145,-3.6708,16.15,22,67,3.99,ML,1703201264
435,hilo,19.7297,-155.09,25.16,91,100,2.06,US,1703201016
436,cannonvale,-20.2833,148.7,26.66,66,53,4.02,AU,1703201264
437,okhotsk,59.3833,143.3,-27.22,85,39,6.28,RU,1703201264
438,kununurra,-15.7667,128.7333,30.99,62,93,2.06,AU,1703201264
439,hemsby,52.6971,1.6918,9.13,72,17,11.69,GB,1703201264
440,ankang,32.68,109.0172,0.67,54,87,1.29,CN,1703201265
441,praia,14.9215,-23.5087,23.3,56,75,8.23,CV,1703201265
442,viveiro,43.6623,-7.5934,11.24,84,68,1.83,ES,1703201265
443,vorgashor,67.5833,63.95,-7.08,94,99,5.37,RU,1703201265
444,salekhard,66.53,66.6019,-8.76,88,81,4.78,RU,1703201265
445,wuyo,10.3852,11.6968,24.22,26,83,2.71,NG,1703201265
446,kazlu ruda,54.7667,23.5,2.99,96,100,6.86,LT,1703201265
447,manga,11.6636,-1.0731,21.39,12,4,3.7,BF,1703201265
448,farasan,16.7022,42.1183,27.27,74,0,6.0,SA,1703201265
449,kencong,-8.2833,113.3667,24.82,79,30,0.93,ID,1703201265
450,kalmunai,7.4167,81.8167,25.93,81,95,4.69,LK,1703201265
451,pingliang,35.5392,106.6861,-9.07,54,96,0.67,CN,1703201265
452,kontcha,7.9667,12.2333,23.92,31,8,1.35,CM,1703201266
453,baoying,33.2292,119.3092,-7.47,33,0,2.01,CN,1703201266
454,loukhi,66.0764,33.0381,-20.77,100,75,0.92,RU,1703201266
455,pasuquin,18.3328,120.6177,23.97,69,75,8.75,PH,1703201266
456,severo-yeniseyskiy,60.3725,93.0408,-13.07,94,100,2.63,RU,1703201266
457,rouissat,31.9243,5.3502,10.04,76,0,2.06,DZ,1703201266
458,bel ombre,-4.6167,55.4167,27.91,83,20,3.09,SC,1703201266
459,tieling,42.2931,123.8414,-21.04,93,14,2.33,CN,1703201266
460,paradip garh,20.3167,86.6167,17.45,57,55,2.75,IN,1703201266
461,cadale,2.7603,46.3222,26.72,83,34,8.32,SO,1703201266
462,caraballeda,10.6112,-66.8522,32.04,81,75,2.57,VE,1703201266
463,keflavik,64.0049,-22.5624,-3.76,58,75,4.12,IS,1703201267
464,newman,37.3138,-121.0208,15.58,83,90,2.24,US,1703201267
465,quepos,9.4236,-84.1652,27.25,73,63,0.9,CR,1703201267
466,lisakovsk,52.5369,62.4936,-1.14,86,98,5.96,KZ,1703201267
467,esmeraldas,-19.7625,-44.3139,25.48,89,98,1.38,BR,1703200980
468,palikir - national government center,6.9248,158.1611,28.47,78,75,5.14,FM,1703201267
469,isla vista,34.4133,-119.861,17.2,83,100,5.14,US,1703201267
470,berezovo,63.9381,65.0419,-5.28,90,68,4.7,RU,1703201267
471,bodo,67.28,14.405,-1.98,64,0,5.66,NO,1703201267
472,antofagasta,-23.65,-70.4,19.6,77,27,4.75,CL,1703201267
473,murzuq,25.9155,13.9184,9.69,55,0,3.3,LY,1703201267
474,nikolayevsk-on-amure,53.1406,140.73,-29.21,94,36,1.77,RU,1703201267
475,bandarban,22.1965,92.2262,15.83,99,69,0.88,BD,1703201267
476,lethem,3.3803,-59.7968,30.79,54,97,4.09,GY,1703201268
477,pikeville,37.4793,-82.5188,10.45,37,0,0.0,US,1703201053
478,gorgan,36.8387,54.4348,-0.02,100,0,0.0,IR,1703201268
479,guarapari,-20.6667,-40.4975,25.12,88,96,4.13,BR,1703201268
480,rio preto da eva,-2.6994,-59.6997,24.75,95,100,0.37,BR,1703201268
481,abadan,30.3392,48.3043,14.97,77,100,1.03,IR,1703201268
482,daru,-9.0763,143.2092,26.4,82,100,5.12,PG,1703201268
483,karauli,26.5,77.0167,13.63,33,99,2.61,IN,1703201268
484,posto fiscal rolim de moura,-13.0833,-62.2667,24.25,96,100,1.95,BR,1703201268
485,ciudad madero,22.2667,-97.8333,23.36,88,75,4.12,MX,1703201268
486,oranjemund,-28.55,16.4333,15.77,95,10,2.2,NA,1703201268
487,sal rei,16.1833,-22.9167,22.06,61,99,10.36,CV,1703201268
488,cuatro cienegas de carranza,26.9833,-102.0833,19.71,56,100,3.9,MX,1703201269
489,resita,45.3008,21.8892,5.72,61,100,2.48,RO,1703201269
490,palmer,42.1584,-72.3287,-1.03,42,0,4.12,US,1703201269
491,tucurui,-3.7661,-49.6725,24.41,93,91,1.7,BR,1703201269
492,nemuro,43.3236,145.575,-3.2,73,17,6.82,JP,1703201269
493,hammerfest,70.6634,23.6821,-4.75,68,0,5.14,NO,1703201269
494,bubaque,11.2833,-15.8333,25.6,52,0,4.77,GW,1703201269
495,karasburg,-28.0167,18.75,21.45,26,0,4.87,NA,1703201269
496,st. john's,47.5649,-52.7093,7.53,97,100,4.12,CA,1703201072
497,peto,20.1333,-88.9167,24.8,52,66,1.7,MX,1703201269
498,mezhdurechensk,53.6942,88.0603,-3.57,93,100,3.58,RU,1703201269
499,pacific grove,36.6177,-121.9166,15.61,82,20,3.6,US,1703201269
500,flying fish cove,-10.4217,105.6791,22.82,94,89,1.03,CX,1703201269
501,troitsko-pechorsk,62.7084,56.1964,-8.5,99,100,0.89,RU,1703201270
502,northam,51.0333,-4.2167,13.14,91,97,12.7,GB,1703201270
503,khash,28.2211,61.2158,8.08,57,0,1.4,IR,1703201270
504,naha,26.2125,127.6811,14.38,62,75,12.86,JP,1703201270
505,krasnokamensk,50.0979,118.0369,-28.44,96,22,1.51,RU,1703201270
506,ghotki,28.006,69.3161,18.45,15,100,3.42,PK,1703201270
507,quesnel,52.9999,-122.5029,4.28,100,100,0.0,CA,1703201270
508,beau vallon,-20.4189,57.6953,27.13,83,40,1.54,MU,1703201270
509,gwaram,11.2764,9.8858,20.2,30,60,3.67,NG,1703201270
510,pathein,16.7833,94.7333,19.94,79,24,2.22,MM,1703201270
511,hailar,49.2,119.7,-30.34,99,42,2.67,CN,1703201270
512,dongsheng,39.8161,109.9776,-21.51,91,90,2.8,CN,1703201271
513,pacasmayo,-7.4006,-79.5714,22.32,76,80,6.8,PE,1703201271
514,hirtshals,57.5881,9.9592,2.48,81,100,12.28,DK,1703201271
515,bridgewater,44.3835,-64.5155,-2.18,60,81,12.35,CA,1703201117
516,letlhakane,-21.4167,25.5833,27.21,27,53,6.54,BW,1703201271
517,kendari,-3.945,122.4989,25.88,86,61,1.57,ID,1703201271
518,san luis de la loma,17.2706,-100.8939,27.26,72,22,2.53,MX,1703201271
519,ponta delgada,37.7333,-25.6667,14.4,77,40,3.6,PT,1703201271
520,nuku'alofa,-21.1333,-175.2,29.19,61,40,2.57,TO,1703201271
521,bhinmal,25.0,72.25,16.64,21,33,1.56,IN,1703201271
522,ajdabiya,30.7554,20.2263,16.48,75,25,8.24,LY,1703201271
523,pierre,44.3683,-100.351,3.51,75,0,0.0,US,1703201164
524,tanjung pandan,-2.75,107.65,26.01,87,95,2.44,ID,1703201272
525,gujba,11.5032,11.9367,20.98,26,58,5.05,NG,1703201272
526,kapa'a,22.0752,-159.319,26.99,80,75,6.69,US,1703201272
527,velingara,13.15,-14.1167,21.63,15,15,3.46,SN,1703201272
528,uribia,11.7139,-72.266,28.41,64,49,7.66,CO,1703201272
529,brigantine,39.4101,-74.3646,5.01,71,0,0.0,US,1703201272
530,san antonio de pale,-1.4014,5.6325,27.08,82,70,3.17,GQ,1703201272
531,perbaungan,3.5679,98.956,25.06,92,98,2.11,ID,1703201272
532,banda aceh,5.5577,95.3222,25.8,84,70,4.95,ID,1703201272
533,port shepstone,-30.7414,30.455,22.55,83,94,1.91,ZA,1703201272
534,ryotsu-minato,38.0833,138.4333,-0.05,83,100,5.42,JP,1703201273
535,khanty-mansiysk,61.0042,69.0019,0.06,100,75,6.0,RU,1703201273
536,magadan,59.5667,150.8,-20.34,76,100,4.19,RU,1703201273
537,adzope,6.1069,-3.8619,21.56,50,30,0.63,CI,1703201273
538,tsivil'sk,55.8611,47.4664,1.56,99,100,5.69,RU,1703201273
539,brandon,27.9378,-82.2859,20.58,63,75,3.09,US,1703201209
540,cromer,52.9312,1.2989,9.0,74,21,12.25,GB,1703201273
541,nar'yan-mar,67.6713,53.087,-8.83,97,98,2.68,RU,1703201273
542,shamakhi,40.6314,48.6414,2.26,55,37,2.47,AZ,1703201273
543,chos malal,-37.3781,-70.2709,25.2,15,0,7.0,AR,1703201273
544,papao,-17.75,-149.55,27.82,93,100,6.02,PF,1703201273
545,mana,5.6592,-53.7767,25.91,92,87,4.0,GF,1703201273
546,amorebieta,43.2167,-2.7333,13.02,69,100,5.14,ES,1703201274
547,eppertshausen,49.9506,8.8539,6.18,90,99,7.23,DE,1703201274
548,udalguri,26.7667,92.1333,13.4,57,37,2.55,IN,1703201274
549,barentu,15.1139,37.5928,23.17,34,0,1.53,ER,1703201274
550,ghat,24.9647,10.1728,9.78,53,2,1.67,LY,1703201274
551,nacozari de garcia,30.3742,-109.6908,20.49,29,0,4.72,MX,1703201274
552,gore,-46.1028,168.9436,15.7,78,100,1.28,NZ,1703201274
553,tumayr,25.7039,45.868,15.04,33,50,4.46,SA,1703201274
554,port moresby,-9.4431,147.1797,27.14,78,98,1.9,PG,1703201230
555,energetik,51.7445,58.7934,-2.44,91,94,4.74,RU,1703201274
556,bol,13.4586,14.7147,22.74,42,27,7.0,TD,1703201274
557,kalemie,-5.9475,29.1947,21.57,90,100,2.24,CD,1703201275
558,tralee,52.2704,-9.7026,10.6,87,100,10.18,IE,1703201275
559,tocoa,15.6833,-86.0,23.79,88,42,1.07,HN,1703201002
560,al jubayl,27.0112,49.6583,20.24,51,89,1.46,SA,1703201095
561,aur,8.1499,171.1687,27.62,81,66,10.01,MH,1703201275
562,richards bay,-28.783,32.0377,23.17,92,99,5.09,ZA,1703201275
563,zaozersk,69.4005,32.4476,-11.83,88,98,2.96,RU,1703201275
564,khovd,48.0056,91.6419,-19.53,80,35,1.17,MN,1703201213
565,primero de mayo,-32.2552,-58.4228,25.86,82,25,1.86,AR,1703201275
566,selfoss,63.9331,-20.9971,-8.31,64,48,3.09,IS,1703201275
567,labrador city,52.9463,-66.9114,-20.05,77,40,4.12,CA,1703201275
568,muroto-misakicho,33.2833,134.15,4.04,55,3,7.54,JP,1703201275
569,san miguel,13.4833,-88.1833,28.21,44,54,1.89,SV,1703201093
570,pimentel,-6.8367,-79.9342,24.16,73,0,10.29,PE,1703201275
571,san mariano,7.5,126.0,23.07,88,32,0.93,PH,1703201276
572,cobija,-11.0267,-68.7692,26.1,94,100,2.06,BO,1703201276
573,spanish wells,26.323,-81.7957,21.01,64,100,6.17,US,1703201276
574,starkville,33.4504,-88.8184,10.93,62,0,1.54,US,1703201026
575,itaituba,-4.2761,-55.9836,24.65,94,100,2.54,BR,1703201276
576,abalak,58.1286,68.5944,1.67,97,100,6.01,RU,1703201276
577,dunedin,-45.8742,170.5036,11.0,91,100,5.74,NZ,1703201276
578,pauini,-7.7136,-66.9764,25.38,85,100,1.08,BR,1703201276
579,strasburg,48.5834,7.743,11.04,71,75,11.32,FR,1703201276
580,usinsk,65.9939,57.5281,-10.61,96,94,5.19,RU,1703201276
581,geraldton,-28.7667,114.6,23.23,73,100,6.69,AU,1703201276
